City,Cloudiness (%),Country,Date,Humidity (%),Latitude,Longitude,Max Temp (C°),Wind Speed (kmph)
Port Elizabeth,0,ZA,1588959251,93,-33.92,25.57,17.0,2.6
Olafsvik,0,IS,1588959251,66,64.89,-23.71,3.85,3.69
Hithadhoo,71,MV,1588959251,78,-0.6,73.08,29.65,6.65
East London,37,ZA,1588959228,81,-33.02,27.91,21.11,2.87
Dongsheng,100,CN,1588959252,43,39.82,109.98,10.91,5.35
Iqaluit,75,CA,1588959214,50,63.75,-68.51,1.0,6.2
Nabire,100,ID,1588959253,89,-3.37,135.48,25.81,1.42
Umm Kaddadah,1,SD,1588959253,11,13.6,26.69,32.15,6.12
Souillac,20,MU,1588959253,94,-20.52,57.52,23.0,1.5
Dobroye,75,RU,1588959253,81,52.87,39.81,11.0,2.0
Cape Town,0,ZA,1588959254,88,-33.93,18.42,19.44,3.6
New Norfolk,97,AU,1588959254,77,-42.78,147.06,9.44,0.89
Bluff,36,NZ,1588959254,81,-46.6,168.33,9.9,5.81
Avarua,6,CK,1588959255,94,-21.21,-159.78,24.0,1.0
Dikson,100,RU,1588959255,98,73.51,80.55,-0.63,11.16
Atuona,71,PF,1588959255,73,-9.8,-139.03,27.44,8.29
Busselton,0,AU,1588959256,67,-33.65,115.33,8.33,2.88
Albany,100,US,1588958959,16,42.6,-73.97,13.33,3.38
Pangnirtung,90,CA,1588959256,79,66.15,-65.71,-5.0,3.1
La Ronge,90,CA,1588959256,51,55.1,-105.28,4.0,3.6
Bathsheba,20,BB,1588959256,62,13.22,-59.52,31.0,9.8
Mataura,43,NZ,1588959257,89,-46.19,168.86,7.39,1.78
Peniche,88,PT,1588959257,74,39.36,-9.38,18.33,3.13
El Silencio,20,VE,1588959257,70,10.5,-66.92,30.56,1.5
Buala,44,SB,1588959257,81,-8.14,159.59,27.02,1.87
Mujiayingzi,33,CN,1588959258,67,42.12,118.78,11.06,2.01
Paita,13,PE,1588959258,45,-5.09,-81.11,31.0,7.2
Rikitea,27,PF,1588959258,71,-23.12,-134.97,24.26,4.11
Xining,100,CN,1588959258,85,36.62,101.77,1.95,1.94
Cabo San Lucas,5,MX,1588959259,19,22.89,-109.91,30.0,2.6
Evansville,90,US,1588959128,81,37.97,-87.56,10.56,5.1
Punta Arenas,87,CL,1588959259,76,-53.15,-70.92,11.0,4.6
Batagay-Alyta,98,RU,1588959259,93,67.8,130.41,-11.14,1.31
Itarema,90,BR,1588959260,80,-2.92,-39.92,28.81,3.75
Basco,0,PH,1588959260,74,20.45,121.97,27.68,2.74
Arraial do Cabo,40,BR,1588959260,69,-22.97,-42.03,25.0,4.1
Mehamn,40,NO,1588959230,64,71.04,27.85,2.0,3.6
Thompson,75,CA,1588959241,68,55.74,-97.86,-2.0,2.1
Porbandar,20,IN,1588959261,89,21.64,69.61,29.0,4.1
Vaini,75,TO,1588959261,100,-21.2,-175.2,25.0,4.6
Cockburn Town,75,TC,1588959261,74,21.46,-71.14,30.0,4.1
Khatanga,79,RU,1588959261,93,71.97,102.5,-6.76,8.41
Hermanus,0,ZA,1588959262,87,-34.42,19.23,17.32,4.29
Jamestown,90,US,1588959262,64,42.1,-79.24,2.78,6.2
Doha,61,QA,1588958923,23,25.29,51.53,31.0,4.1
Qaanaaq,87,GL,1588959262,87,77.48,-69.36,-8.04,0.91
Faya,65,SA,1588959263,77,18.39,42.45,22.0,2.6
Fomboni,4,KM,1588959263,79,-12.28,43.74,27.39,7.81
Hasaki,61,JP,1588959263,82,35.73,140.83,13.0,3.1
Valley,1,US,1588959263,23,45.13,-116.13,12.0,2.6
Butaritari,90,KI,1588959264,75,3.07,172.79,28.11,1.63
Yerbogachën,0,RU,1588959264,83,61.28,108.01,-1.5,1.28
Esperance,75,AU,1588959264,87,-33.87,121.9,10.0,1.0
Khandyga,100,RU,1588959264,96,62.67,135.6,1.45,2.92
Mandalgovi,77,MN,1588959265,62,45.76,106.27,5.56,9.37
Ullapool,92,GB,1588959265,90,57.9,-5.16,10.0,0.45
Tuktoyaktuk,5,CA,1588959265,78,69.45,-133.04,-8.0,7.7
Boyolangu,100,ID,1588959265,89,-8.12,111.89,25.21,0.51
Shimoda,89,JP,1588959266,67,34.67,138.95,15.04,2.33
San Angelo,99,US,1588959221,32,31.46,-100.44,22.22,10.33
Vila Franca do Campo,75,PT,1588959266,87,37.72,-25.43,15.0,7.7
Araouane,0,ML,1588959267,7,18.9,-3.53,38.5,2.66
Deputatsky,100,RU,1588959032,99,69.3,139.9,-4.85,1.48
Ostrovnoy,94,RU,1588959267,91,68.05,39.51,1.15,3.84
Bereda,79,ES,1588959267,97,43.27,-7.54,21.11,0.45
Port Hedland,0,AU,1588959268,82,-20.32,118.57,20.0,2.6
Nechí,87,CO,1588959268,49,8.09,-74.78,35.89,0.97
Scarborough,79,GB,1588959268,72,54.28,-0.4,16.11,0.45
Alice Springs,0,AU,1588959198,28,-23.7,133.88,15.0,3.1
Port Alfred,3,ZA,1588959269,95,-33.59,26.89,18.33,0.89
Puerto Ayora,20,EC,1588959270,74,-0.74,-90.35,28.0,8.2
Chui,7,UY,1588959270,49,-33.7,-53.46,17.4,3.32
Barrow,90,US,1588959260,92,71.29,-156.79,-8.0,5.7
Nagtipunan,65,PH,1588959270,83,16.22,121.6,24.57,0.17
Jacqueville,20,CI,1588959271,83,5.21,-4.41,28.0,3.6
Solnechnyy,0,RU,1588959271,80,50.72,136.63,2.87,1.57
Bambous Virieux,20,MU,1588959271,94,-20.34,57.76,23.33,1.5
Ushuaia,90,AR,1588959096,100,-54.8,-68.3,6.0,2.1
Kapaa,40,US,1588959272,69,22.08,-159.32,23.0,7.7
George Town,40,MY,1588959000,94,5.41,100.34,26.0,2.1
Mumford,37,GH,1588959272,80,5.26,-0.76,28.57,6.17
Soyo,76,AO,1588959273,88,-6.13,12.37,26.77,3.37
Atar,0,MR,1588959274,9,20.52,-13.05,39.42,5.86
Fort-Shevchenko,72,KZ,1588959274,86,44.51,50.26,16.86,7.43
Carnarvon,83,AU,1588959275,42,-24.87,113.63,20.32,9.07
Hobyo,1,SO,1588959275,72,5.35,48.53,29.68,5.06
Bredasdorp,0,ZA,1588959275,93,-34.53,20.04,16.0,1.0
Tasiilaq,0,GL,1588959276,69,65.61,-37.64,1.0,2.6
Calabozo,91,VE,1588959276,26,8.92,-67.43,37.32,4.42
Hualmay,8,PE,1588959276,67,-11.1,-77.61,23.31,5.04
Hobart,75,AU,1588959042,87,-42.88,147.33,9.44,0.5
Nikolskoye,60,RU,1588959277,37,59.7,30.79,10.56,4.0
Santa Rosa,75,PH,1588959277,74,14.31,121.11,30.0,2.6
São Filipe,73,CV,1588959277,73,14.9,-24.5,24.0,5.24
Minggang,22,CN,1588959278,82,32.46,114.05,15.91,4.18
Khasan,100,RU,1588959278,77,42.43,130.64,11.63,0.84
Upernavik,100,GL,1588959278,86,72.79,-56.15,-5.75,2.65
Ankazobe,20,MG,1588959279,88,-18.32,47.12,18.0,4.1
Sinnai,50,IT,1588959279,60,39.3,9.2,22.0,8.2
Tiksi,100,RU,1588959279,96,71.69,128.87,-9.58,8.19
Kavieng,0,PG,1588959279,74,-2.57,150.8,28.14,3.49
Challapata,0,BO,1588959280,29,-18.9,-66.77,14.52,2.27
Bosaso,28,SO,1588959280,66,11.28,49.18,30.89,1.6
Haines Junction,69,CA,1588959280,46,60.75,-137.51,9.96,0.96
Wanning,11,CN,1588959280,92,18.8,110.4,26.7,4.67
Kaitangata,56,NZ,1588959281,86,-46.28,169.85,9.44,1.34
Muros,60,ES,1588959281,79,42.78,-9.06,18.89,2.68
Kasongo-Lunda,69,CD,1588959281,69,-6.47,16.82,25.28,0.75
Tautira,20,PF,1588959281,83,-17.73,-149.15,26.0,1.5
Shache,89,CN,1588959282,49,38.42,77.24,17.35,0.63
Saskylakh,47,RU,1588959282,92,71.92,114.08,-19.34,0.74
Katsuura,55,JP,1588959282,67,35.13,140.3,17.0,6.2
San Quintín,27,MX,1588959282,47,30.48,-115.95,23.41,4.31
Chokurdakh,100,RU,1588959283,96,70.63,147.92,-7.53,3.58
Lebu,100,CL,1588959284,75,-37.62,-73.65,16.79,6.56
Anjangaon,6,IN,1588959284,17,21.16,77.31,33.27,3.06
Pontianak,100,ID,1588959284,93,-0.03,109.33,25.43,1.07
Dwārka,0,IN,1588959285,85,22.24,68.97,27.96,7.12
Diré,82,ML,1588959285,19,12.28,-10.97,40.14,1.69
Taltal,21,CL,1588959285,57,-25.4,-70.48,19.85,1.47
Skellefteå,100,SE,1588959089,77,64.75,20.95,7.22,3.6
Sibagat,44,PH,1588959286,91,8.82,125.7,23.03,0.68
Vestmannaeyjar,20,IS,1588959286,75,63.44,-20.27,7.0,7.7
Lavrentiya,99,RU,1588959286,92,65.58,-171.0,0.23,5.83
Hilo,90,US,1588959007,73,19.73,-155.09,21.11,2.1
Yellowknife,90,CA,1588959033,69,62.46,-114.35,4.0,6.2
Minudasht,20,IR,1588959288,77,37.23,55.37,18.0,2.1
Tūkrah,0,LY,1588959288,70,32.53,20.58,17.11,7.64
Kruisfontein,0,ZA,1588959288,98,-34.0,24.73,14.31,0.8
Sept-Îles,75,CA,1588959288,34,50.2,-66.38,11.0,4.1
Ludvika,75,SE,1588959289,37,60.15,15.19,12.22,4.1
Nanortalik,89,GL,1588959289,76,60.14,-45.24,4.74,3.14
Alofi,89,NU,1588959289,100,-19.06,-169.92,21.0,1.0
Conde,75,BR,1588959289,66,-7.26,-34.91,30.0,4.6
Ancud,90,CL,1588959290,100,-41.87,-73.82,14.44,9.8
Dingcheng,2,CN,1588959290,89,32.13,115.04,15.76,3.34
Antofagasta,20,CL,1588959290,68,-23.65,-70.4,18.0,3.6
São José da Coroa Grande,75,BR,1588959290,68,-8.9,-35.15,28.18,3.48
Sur,0,OM,1588959189,43,22.57,59.53,32.84,3.99
Ponta do Sol,20,PT,1588959291,64,32.67,-17.1,22.0,8.7
Derzhavīnsk,0,KZ,1588959291,44,51.1,66.32,18.33,7.88
Ribeira Grande,20,PT,1588959291,63,38.52,-28.7,19.0,10.3
Nantucket,90,US,1588959292,53,41.28,-70.1,11.67,5.1
Adrar,56,MR,1588959292,12,20.5,-10.07,38.49,3.66
Yarim,57,YE,1588959292,54,14.3,44.38,16.57,2.76
Provideniya,67,RU,1588959294,81,64.38,-173.3,1.77,8.39
Ust'-Omchug,34,RU,1588959294,95,61.15,149.63,-7.03,0.74
Cherskiy,22,RU,1588959294,93,68.75,161.3,-3.42,2.35
Lüderitz,0,NA,1588959295,93,-26.65,15.16,13.0,4.6
Clyde River,75,CA,1588959295,85,70.47,-68.59,-7.0,9.3
Caravelas,100,BR,1588959295,82,-17.71,-39.25,21.71,5.76
Berlevåg,40,NO,1588959042,64,70.86,29.09,2.0,3.6
Kidal,0,ML,1588959296,7,18.44,1.41,36.64,4.69
Norman Wells,5,CA,1588959296,64,65.28,-126.83,3.0,5.7
Sayyan,4,YE,1588959297,33,15.17,44.32,17.91,4.28
Pinheiro Machado,1,BR,1588959297,47,-31.58,-53.38,18.33,2.39
Bodden Town,40,KY,1588959293,83,19.28,-81.25,29.0,7.2
Saint-Philippe,40,RE,1588959297,78,-21.36,55.77,23.0,3.1
Mossamedes,0,AO,1588959120,46,-15.2,12.15,28.56,1.97
Dingle,81,PH,1588959298,79,11.0,122.67,26.28,2.51
Castro,13,BR,1588959298,45,-24.79,-50.01,18.01,2.14
Airai,5,TL,1588959298,75,-8.93,125.41,13.38,1.37
Margate,88,GB,1588959108,49,51.38,1.39,20.0,1.34
Hong Kong,6,HK,1588959299,82,22.29,114.16,28.33,1.79
Sampit,90,ID,1588959299,97,-2.53,112.95,24.47,0.71
Kwakoa,88,TZ,1588959299,83,-3.77,37.72,21.14,1.59
Oranjemund,0,NA,1588959300,73,-28.55,16.43,16.26,3.25
Torbay,90,CA,1588959300,93,47.67,-52.73,6.11,10.3
Kavaratti,97,IN,1588959300,78,10.57,72.64,30.02,3.99
Yamoussoukro,75,CI,1588959301,52,6.82,-5.28,34.0,2.1
Oistins,20,BB,1588959251,62,13.07,-59.53,31.0,9.8
Fairbanks,75,US,1588959254,33,64.84,-147.72,15.0,6.2
Lincoln,1,US,1588959002,40,40.8,-96.67,11.11,6.2
Snezhnogorsk,75,RU,1588959302,79,69.19,33.25,3.0,1.0
Guerrero Negro,0,MX,1588959302,39,27.98,-114.06,25.64,2.0
Flinders,0,AU,1588959302,72,-34.58,150.86,19.44,1.34
Saint Paul Harbor,90,US,1588959302,87,57.79,-152.41,7.0,8.2
Bone,98,DE,1588959303,28,51.97,12.14,20.56,0.45
Uyemskiy,40,RU,1588959303,45,64.47,40.85,8.0,3.0
Udachny,76,RU,1588959303,66,66.42,112.4,-9.0,3.0
Huntsville,90,US,1588959304,93,34.73,-86.59,12.78,7.7
Tevriz,12,RU,1588959304,52,57.51,72.4,15.36,1.76
Mar del Plata,21,AR,1588959304,55,-38.0,-57.56,18.0,8.7
Constitución,100,CL,1588959304,58,-35.33,-72.42,18.47,3.06
Cloquet,1,US,1588959305,27,46.72,-92.46,5.0,5.7
Salalah,20,OM,1588959305,89,17.02,54.09,29.0,1.5
Portland,1,US,1588958777,28,45.52,-122.68,23.33,8.2
Severo-Kuril'sk,65,RU,1588959306,93,50.68,156.12,0.61,6.06
Belaya Gora,100,RU,1588959306,97,68.53,146.42,-2.93,3.68
Bellary,100,IN,1588959306,29,15.15,76.93,33.78,2.81
Plettenberg Bay,4,ZA,1588959307,90,-34.05,23.37,16.49,1.05
Yeppoon,40,AU,1588959307,82,-23.13,150.73,18.0,2.1
Saint-Joseph,40,RE,1588959307,78,-21.37,55.62,23.0,3.1
San Patricio,20,MX,1588959307,73,19.22,-104.7,25.0,3.17
Gualeguaychú,60,AR,1588959140,53,-33.01,-58.52,17.78,2.24
Bethel,90,US,1588959308,39,41.37,-73.41,10.0,4.1
Bonfim,93,BR,1588959308,59,3.08,-59.95,31.18,1.04
Concordia,14,AR,1588959308,52,-31.39,-58.02,18.0,3.1
Santa Maria,0,BR,1588959309,46,-29.68,-53.81,20.16,0.81
Beringovskiy,100,RU,1588959309,99,63.05,179.32,-0.63,3.31
Polis,20,CY,1588959309,72,35.04,32.43,20.0,2.1
Port Hardy,20,CA,1588959309,76,50.7,-127.42,11.0,1.5
Eyl,0,SO,1588959310,68,7.98,49.82,29.03,3.87
Saint-Augustin,100,CA,1588959310,98,51.23,-58.65,1.63,0.76
Sechura,17,PE,1588959310,54,-5.56,-80.82,28.19,5.09
San Cristobal,40,VE,1588959029,41,7.77,-72.22,34.0,10.3
Sørland,40,NO,1588959311,64,67.67,12.69,3.0,5.7
Talnakh,40,RU,1588959311,93,69.49,88.4,2.0,10.0
Collierville,90,US,1588959122,100,35.04,-89.66,15.56,2.1
Farmington,1,US,1588959284,9,36.73,-108.22,17.0,2.1
Xochihuehuetlán,0,MX,1588959312,27,17.92,-98.43,33.05,2.09
Chuzhou,49,CN,1588959312,89,32.32,118.3,18.89,1.34
College,75,US,1588959312,33,64.86,-147.8,15.0,5.1
Antalaha,15,MG,1588959312,82,-14.9,50.28,24.17,3.83
Mahébourg,20,MU,1588959313,94,-20.41,57.7,23.0,1.5
Pevek,0,RU,1588959313,91,69.7,170.31,-2.61,3.95
Krasnosel'kup,78,RU,1588959313,98,65.7,82.47,5.02,3.5
Yārāda,40,IN,1588959314,83,17.65,83.27,29.0,2.1
Korla,2,CN,1588959314,27,41.76,86.15,17.48,2.29
Mackenzie,1,CA,1588959315,57,55.3,-123.17,11.0,3.1
Mareeba,90,AU,1588959315,83,-17.0,145.43,22.0,4.1
Blagoveshchensk,80,RU,1588959192,87,50.27,127.53,7.0,1.0
Serra Talhada,82,BR,1588959181,46,-7.99,-38.3,30.51,4.66
Menongue,0,AO,1588959316,58,-14.66,17.69,16.76,1.93
Port-Gentil,75,GA,1588959316,94,-0.72,8.78,26.0,4.6
Ouésso,63,CG,1588959317,87,1.61,16.05,24.17,0.14
Igarka,100,RU,1588959317,98,67.47,86.58,3.49,3.69
Córdoba,1,AR,1588959317,33,-31.41,-64.18,24.44,2.1
Biak,50,ID,1588959318,80,-0.91,122.88,25.98,2.2
Saint George,1,US,1588959318,11,37.1,-113.58,24.44,2.6
Uddevalla,52,SE,1588959318,50,58.35,11.94,12.78,5.7
Ełk,63,PL,1588959318,83,53.83,22.36,10.38,0.55
Muli,80,MV,1588959319,77,2.92,73.57,29.7,6.16
Troitskoye,0,RU,1588959319,51,52.98,84.68,9.61,3.77
Andenes,100,NO,1588959320,80,69.31,16.12,1.0,2.6
Port Blair,100,IN,1588959320,76,11.67,92.75,29.03,1.92
Kamenka,100,RU,1588959320,67,51.32,42.77,14.44,2.56
Buraidah,75,SA,1588959320,28,26.33,43.98,34.0,6.7
Naze,75,JP,1588959321,88,28.37,129.48,22.0,4.6
Richards Bay,76,ZA,1588959321,82,-28.78,32.04,20.23,3.5
Nome,1,US,1588959321,45,64.5,-165.41,9.0,6.2
Youghal,20,IE,1588959322,82,51.95,-7.85,16.67,3.1
Nelson Bay,0,AU,1588959322,93,-32.72,152.15,16.67,3.92
Ilulissat,5,GL,1588959050,50,69.22,-51.1,1.0,5.1
Te Anau,65,NZ,1588959323,85,-45.42,167.72,8.73,1.21
Kutum,97,SD,1588959323,17,14.2,24.67,27.88,6.24
Quimper,70,FR,1588959323,72,48.0,-4.1,20.0,3.1
Tual,11,ID,1588959323,78,-5.67,132.75,28.21,8.5
Slave Lake,40,CA,1588959324,93,55.28,-114.77,5.0,5.1
Kisangani,61,CD,1588959324,89,0.52,25.2,23.32,0.96
Douglas,1,US,1588959324,37,41.3,-96.17,11.67,5.1
Sitka,75,US,1588959324,57,57.05,-135.33,11.0,3.1
Bengkulu,100,ID,1588959325,83,-3.8,102.27,25.18,2.03
Zyryanka,1,RU,1588959325,95,65.75,150.85,-3.64,2.68
Tila,10,MX,1588959325,48,17.4,-92.48,32.26,1.62
Leh,25,IN,1588959082,52,34.17,77.58,5.88,2.14
Port Lincoln,47,AU,1588959326,65,-34.73,135.87,11.95,11.66
Longyearbyen,75,SJ,1588959292,73,78.22,15.64,-3.0,4.1
Turaif,6,SA,1588959327,18,31.67,38.66,28.0,3.6
Bowen,90,AU,1588959327,93,-20.02,148.23,20.56,5.17
Tsimmerbude,12,RU,1588959327,71,54.67,20.13,11.0,5.0
St. George's,20,GD,1588959328,70,12.06,-61.75,30.0,10.3
Lompoc,1,US,1588959328,56,34.64,-120.46,26.11,2.0
Cedar City,1,US,1588959328,15,37.68,-113.06,14.0,3.1
Tilichiki,0,RU,1588959328,98,60.47,166.1,-6.33,4.57
Panguna,64,PG,1588959329,99,-6.32,155.48,20.2,0.74
Lorengau,97,PG,1588959330,79,-2.02,147.27,27.5,1.53
Agapovka,0,RU,1588959330,29,53.3,59.13,17.0,5.0
Guadalupe y Calvo,25,MX,1588959330,25,26.1,-106.97,23.43,2.38
Zhangaözen,93,KZ,1588959330,68,43.3,52.8,18.8,1.62
Sola,0,VU,1588959331,74,-13.88,167.55,26.14,5.54
Smithers,20,CA,1588959331,50,54.78,-127.17,13.0,2.6
Libreville,40,GA,1588959332,94,0.39,9.45,25.0,3.6
Lagoa,84,PT,1588959332,71,39.05,-27.98,16.01,12.01
Zabid,53,YE,1588959332,43,14.2,43.32,34.75,5.58
Ol'ga,100,RU,1588959332,56,43.74,135.29,12.88,1.69
Omboué,97,GA,1588959333,86,-1.57,9.26,26.68,2.17
Half Moon Bay,5,US,1588959333,68,37.46,-122.43,25.56,2.39
Sribne,97,UA,1588959333,84,50.66,32.92,8.25,4.5
Baturaja,100,ID,1588959333,95,-4.13,104.17,24.34,0.82
Bonthe,91,SL,1588959334,78,7.53,-12.51,29.13,4.93
Ardatov,100,RU,1588959334,96,55.24,43.1,12.51,2.35
Faanui,97,PF,1588959334,77,-16.48,-151.75,27.73,6.59
Vila do Maio,40,CV,1588959335,61,15.13,-23.22,26.0,9.8
Girov,30,RO,1588959335,58,46.95,26.52,14.44,2.24
Waingapu,9,ID,1588959335,80,-9.66,120.26,24.6,4.01
Río Gallegos,47,AR,1588959211,76,-51.62,-69.22,12.0,1.0
Sungai Penuh,100,ID,1588959193,90,-2.08,101.38,19.27,0.67
Alta Floresta,90,BR,1588959336,74,-9.88,-56.09,26.0,2.1
Røros,75,NO,1588959337,96,62.57,11.38,3.0,5.7
Petropavlovsk-Kamchatskiy,98,RU,1588959050,69,53.05,158.65,2.0,2.0
Jieshi,7,CN,1588959337,92,22.81,115.83,25.77,4.13
Onguday,0,RU,1588959337,63,50.75,86.15,7.77,0.6
Hannibal,1,US,1588959337,30,39.71,-91.36,13.89,5.1
Narsaq,40,GL,1588959338,50,60.92,-46.05,12.0,3.6
Ahmednagar,0,IN,1588959338,47,19.08,74.73,27.84,2.35
Freital,88,DE,1588959338,34,51.0,13.65,20.0,2.6
Pisco,16,PE,1588959153,69,-13.7,-76.22,23.0,3.1
Gizo Government Station,26,SB,1588959339,77,-8.1,156.84,27.88,2.94
Walker,75,US,1588959339,58,30.73,-95.57,29.44,7.7
Dafeng,54,CN,1588959340,81,23.45,108.59,26.65,2.55
Humaitá,85,BR,1588959340,51,-7.51,-63.02,30.47,1.69
Nālūt,99,LY,1588959340,11,30.33,10.85,32.88,4.14
Butterworth,40,MY,1588959340,94,5.4,100.36,26.0,2.1
Edd,14,ER,1588959340,55,13.93,41.69,33.62,8.44
Kathu,40,TH,1588959156,94,7.92,98.33,25.0,0.5
Valparaíso,90,CL,1588959304,100,-33.04,-71.63,15.0,2.6
Petatlán,40,MX,1588959341,55,17.52,-101.27,30.0,2.6
Melita,52,CA,1588959341,42,49.27,-101.0,8.89,0.45
Trairi,60,BR,1588959234,75,-3.28,-39.27,28.97,4.06
Nemuro,91,JP,1588959342,59,43.32,145.57,9.49,8.38
Mlonggo,25,ID,1588959342,82,-6.53,110.7,26.93,1.89
Bara,14,NG,1588959342,28,10.37,10.73,36.12,4.58
Port Montt,90,CL,1588959343,87,-41.47,-72.94,14.0,6.7
Fortuna,20,US,1588959343,87,40.6,-124.16,13.33,1.5
Posse,75,BR,1588959344,69,-14.09,-46.37,25.61,2.99
Marabá,75,BR,1588959344,70,-5.37,-49.12,31.0,1.5
Cam Ranh,20,VN,1588959344,89,11.92,109.16,30.0,2.6
Ovsyanka,0,RU,1588959345,86,55.96,92.55,1.0,1.01
Ahipara,25,NZ,1588959345,85,-35.17,173.17,12.62,2.4
Yuanping,66,CN,1588959345,82,38.72,112.76,13.39,0.49
Kamen'-Rybolov,100,RU,1588959345,84,44.75,132.04,9.67,3.24
Vung Tau,99,VN,1588959346,79,10.35,107.08,28.91,4.3
Lebanon,90,US,1588959346,82,36.21,-86.29,13.33,5.1
Aklavik,5,CA,1588959346,55,68.22,-135.01,3.0,4.1
Acaraú,93,BR,1588959347,77,-2.89,-40.12,29.26,3.12
Stános,0,GR,1588959347,77,38.8,21.17,18.0,4.1
San Roque,0,ES,1588959347,64,36.21,-5.38,22.0,3.6
Sokoto,21,NG,1588959347,14,13.06,5.24,37.15,0.48
Ambon City,5,ID,1588959348,96,-3.7,128.18,26.67,4.46
Keetmanshoop,0,NA,1588959348,13,-26.58,18.13,26.0,0.5
Chicama,5,PE,1588959348,78,-7.84,-79.15,22.0,6.7
Tuatapere,36,NZ,1588959349,83,-46.13,167.68,9.63,3.11
Kalmunai,49,LK,1588959080,77,7.42,81.82,27.95,1.17
Turukhansk,98,RU,1588959349,96,65.82,87.98,5.72,6.15
Sioux Lookout,40,CA,1588959349,43,50.1,-91.92,2.0,6.2
Mackay,90,AU,1588959350,94,-21.15,149.2,20.0,4.1
Avera,90,US,1588959350,40,33.19,-82.53,20.0,4.1
Bandarbeyla,4,SO,1588959350,72,9.49,50.81,28.59,4.74
San Fernando del Valle de Catamarca,0,AR,1588959350,59,-28.47,-65.79,24.44,3.06
Emerald,40,AU,1588959351,87,-23.53,148.17,16.0,2.09
Praia,40,CV,1588959165,61,14.92,-23.51,26.0,9.8
Kumul,0,CN,1588959351,25,42.8,93.45,15.89,1.85
Sri Aman,65,MY,1588959351,100,1.24,111.46,25.0,0.55
Ayan,100,RU,1588959352,99,56.45,138.17,-1.16,3.71
Zhuanghe,100,CN,1588959352,93,39.7,122.99,12.22,1.79
Lae,96,PG,1588959352,84,-6.72,146.98,24.29,2.67
Mumbwa,0,ZM,1588959352,60,-14.98,27.06,18.01,2.83
Harper,80,LR,1588959353,76,4.38,-7.72,28.77,3.88
Harbour Breton,80,CA,1588959353,87,47.48,-55.8,2.03,12.07
Acajutla,100,SV,1588959292,76,13.59,-89.83,28.89,0.89
Arrondissement du Havre,66,FR,1588959353,52,49.58,0.33,21.0,4.1
Port Shepstone,20,ZA,1588959353,73,-30.74,30.45,19.21,2.69
Kaupanger,75,NO,1588959354,80,61.18,7.24,4.0,16.5
Asău,92,RO,1588959354,58,46.43,26.4,11.67,0.31
Zilair,0,RU,1588959354,38,52.23,57.44,14.56,4.53
Pitimbu,75,BR,1588959355,66,-7.47,-34.81,30.0,4.6
Areosa,75,PT,1588959355,82,41.72,-8.86,16.67,2.6
Sambava,6,MG,1588959355,84,-14.27,50.17,24.95,5.0
Mahibadhoo,100,MV,1588959356,75,3.78,72.97,29.3,4.08
Progreso,40,MX,1588959356,41,21.28,-89.67,33.89,4.1
Wuhu,90,CN,1588959356,93,31.34,118.38,19.0,3.0
Laas,5,IT,1588959357,59,46.62,10.7,16.0,4.1
Boa Vista,75,BR,1588959357,70,2.82,-60.67,29.0,3.1
Hamilton,90,US,1588959108,87,39.18,-84.53,10.56,5.7
Villa María,29,AR,1588959357,40,-32.41,-63.24,22.22,2.68
Marsh Harbour,15,BS,1588959358,57,26.54,-77.06,23.63,5.23
Vilhena,11,BR,1588959358,64,-12.74,-60.15,24.0,4.1
Henties Bay,0,NA,1588959358,50,-22.12,14.28,20.91,2.65
Rome,90,US,1588959358,93,34.26,-85.16,12.22,3.6
Kaeo,1,NZ,1588959359,7,-35.1,173.78,8.33,0.89
Nikolo-Pavlovskoye,39,RU,1588959359,54,57.78,60.06,14.65,2.58
Frankfort,96,ZA,1588959359,37,-27.27,28.48,14.4,2.08
Youkounkoun,83,GN,1588959360,13,12.53,-13.13,41.46,1.92
Klichka,99,RU,1588959360,45,50.45,118.0,8.94,0.61
Klaksvík,82,FO,1588959360,65,62.23,-6.59,5.0,6.7
Seoul,90,KR,1588959361,77,37.57,126.98,15.0,5.7
Isangel,14,VU,1588959244,83,-19.55,169.27,23.81,8.82
Houma,75,US,1588959361,61,29.6,-90.72,30.0,4.1
Puerto Escondido,5,MX,1588959362,74,15.85,-97.07,31.0,5.1
Mt. Pleasant,40,US,1588959261,49,32.79,-79.86,22.22,7.2
Payo,100,ID,1588959362,95,-3.75,103.64,23.72,1.05
Hinton,100,CA,1588959362,79,53.4,-117.59,6.77,0.37
Elesbão Veloso,32,BR,1588959363,61,-6.2,-42.14,31.23,0.46
Honningsvåg,40,NO,1588959363,64,70.98,25.97,2.0,3.6
Saldanha,0,ZA,1588959363,44,-33.01,17.94,24.0,2.6
Río Cuarto,32,AR,1588959150,28,-33.13,-64.35,22.0,7.7
Esna,0,EG,1588959364,18,25.29,32.55,36.0,2.1
Moussoro,46,TD,1588959364,14,13.64,16.49,35.51,0.7
Tura,0,IN,1588959364,40,25.52,90.22,23.88,1.73
Hay River,20,CA,1588959364,69,60.82,-115.8,4.0,6.2
Meulaboh,100,ID,1588959365,91,4.14,96.13,24.37,1.95
Cidreira,22,BR,1588959365,61,-30.18,-50.21,18.45,2.58
Laguna,1,US,1588959081,33,38.42,-121.42,26.67,1.5
Rosetta,40,EG,1588959365,77,31.4,30.42,20.0,8.2
Palatka,1,US,1588959366,35,29.65,-81.64,26.67,5.7
Plastun,100,RU,1588959366,76,44.76,136.29,11.0,2.36
Vardø,75,NO,1588959367,64,70.37,31.11,3.0,3.6
Thunder Bay,75,CA,1588959192,37,48.4,-89.32,1.67,4.6
Curillo,100,CO,1588959367,95,1.03,-75.92,23.68,0.89
Mae Sai,36,TH,1588959367,74,20.43,99.88,27.0,2.1
Visby,3,SE,1588959368,66,57.64,18.3,13.33,6.2
Ust-Nera,100,RU,1588959368,92,64.57,143.2,-3.78,1.11
Hofn,20,IS,1588959369,41,64.25,-15.21,6.0,8.2
Kropotkin,80,RU,1588959370,75,45.44,40.58,10.94,5.42
Paungde,8,MM,1588959370,47,18.48,95.5,31.2,1.4
Dalbandin,0,PK,1588959265,11,28.89,64.41,31.98,1.3
Novska,87,HR,1588959370,29,45.34,16.98,26.0,1.0
Rypefjord,40,NO,1588959371,69,70.63,23.67,1.0,6.7
Port Keats,90,AU,1588959371,65,-14.25,129.55,22.59,2.16
Thinadhoo,90,MV,1588959371,78,0.53,72.93,29.58,7.32
Hargeisa,93,SO,1588959371,69,9.56,44.06,24.29,1.31
Manamadurai,2,IN,1588959372,69,9.7,78.48,29.93,4.38
Ferme-Neuve,100,CA,1588959372,54,46.7,-75.45,4.47,4.16
Porto-Novo,20,BJ,1588959372,74,6.5,2.6,31.0,5.1
Evensk,7,RU,1588959373,93,61.95,159.23,-3.02,7.12
West Wendover,1,US,1588959373,22,40.74,-114.07,14.0,3.1
Doctor Arroyo,96,MX,1588959373,36,23.67,-100.18,24.86,4.17
Katobu,85,ID,1588959373,91,-4.94,122.53,24.58,2.91
Belmonte,75,BR,1588959374,88,-15.86,-38.88,22.0,3.6
Poum,6,NC,1588959374,73,-20.23,164.02,23.2,6.11
Tahoua,9,NE,1588959375,8,14.89,5.27,41.0,2.1
Shingū,100,JP,1588959375,82,33.73,135.98,13.9,1.44
Great Yarmouth,97,GB,1588959375,53,52.61,1.73,21.11,3.13
Hambantota,74,LK,1588959375,83,6.12,81.12,27.61,2.83
Barcelos,75,PT,1588959376,82,41.54,-8.62,18.89,2.6
Cocoa Beach,1,US,1588959376,41,28.32,-80.61,26.0,7.2
Bungu,22,TZ,1588959376,91,-7.63,39.06,21.95,1.82
Umluj,98,SA,1588959377,36,25.02,37.27,28.71,2.56
Sakakah,10,SA,1588959377,8,29.97,40.21,32.0,4.6
Mitsamiouli,12,KM,1588959377,79,-11.38,43.28,27.49,6.92
Smoky Lake,81,CA,1588959377,78,54.12,-112.47,10.0,4.02
Alto Araguaia,2,BR,1588959378,56,-17.31,-53.22,24.89,2.51
Phalodi,2,IN,1588959378,13,27.13,72.37,36.55,3.31
Ferrol,90,ES,1588959378,87,43.48,-8.24,15.56,2.1
Los Llanos de Aridane,75,ES,1588959379,68,28.66,-17.92,22.0,1.5
Chato,61,TZ,1588959379,76,-2.64,31.77,21.6,2.43
Maragogi,70,BR,1588959379,69,-9.01,-35.22,27.91,3.11
Subkhankulovo,22,RU,1588959380,49,54.56,53.81,15.66,2.27
Broken Hill,0,AU,1588959380,47,-31.95,141.43,14.0,4.1
Nuuk,75,GL,1588959380,75,64.18,-51.72,6.0,2.1
Sainte-Suzanne,91,RE,1588959381,83,-20.91,55.61,23.0,2.6
Wamba,37,NG,1588959381,52,8.93,8.6,31.09,2.24
Cayenne,75,GF,1588959381,66,4.93,-52.33,30.0,6.7
Riyadh,77,SA,1588959240,16,24.69,46.72,30.0,3.6
Amahai,11,ID,1588959382,96,-3.33,128.92,26.67,1.97
Mount Isa,40,AU,1588959382,59,-20.73,139.5,18.0,1.15
Shenjiamen,98,CN,1588959269,99,29.96,122.3,19.85,8.58
Luau,47,AO,1588959383,71,-10.71,22.22,20.68,0.62
Bariloche,75,AR,1588959105,48,-41.15,-71.31,17.0,9.8
Joshīmath,24,IN,1588959384,43,30.57,79.57,11.01,2.87
Tibiao,75,PH,1588959384,67,11.29,122.04,28.05,2.04
Broome,75,US,1588959265,45,42.25,-75.83,10.0,3.1
Manzanillo,39,CU,1588959385,55,20.34,-77.12,32.35,3.04
Krasnoturansk,0,RU,1588959385,69,54.32,91.56,4.0,1.0
Awjilah,0,LY,1588959386,18,29.11,21.29,25.28,4.87
Krasnyy Chikoy,100,RU,1588959386,87,50.36,108.75,2.47,1.75
Dekar,0,BW,1588959387,29,-21.53,21.93,18.04,3.0
Manggar,100,ID,1588959387,81,-2.88,108.27,27.88,0.49
Bintulu,90,MY,1588959387,94,3.17,113.03,25.0,3.6
Necochea,38,AR,1588959388,58,-38.55,-58.74,20.0,5.36
Locri,39,IT,1588959388,25,38.24,16.26,19.44,1.11
Kiunga,90,PG,1588959388,97,-6.12,141.29,22.97,0.65
Mana,84,GF,1588959389,75,5.66,-53.78,27.18,5.38
Oussouye,41,SN,1588959389,74,12.48,-16.55,32.0,4.1
Padang,100,ID,1588959389,74,-0.95,100.35,26.39,1.84
Dzilam González,100,MX,1588959389,35,21.28,-88.93,34.63,2.68
Nerang,97,AU,1588959390,91,-27.98,153.33,15.56,1.66
Bilma,0,NE,1588959390,12,18.69,12.92,31.26,1.62
Mwinilunga,54,ZM,1588959390,76,-11.74,24.43,17.77,1.99
River Falls,0,US,1588959390,35,44.86,-92.62,8.33,2.24
Corinth,0,GR,1588959281,46,37.94,22.96,20.0,0.45
Karratha,17,AU,1588959391,63,-20.74,116.85,24.13,2.14
Oudtshoorn,90,ZA,1588959391,100,-33.59,22.2,16.0,3.1
Miguel Hidalgo,20,MX,1588959283,43,19.42,-99.2,21.0,2.1
Itarantim,100,BR,1588959392,88,-15.66,-40.07,21.04,3.73
Caucayá,100,CO,1588959392,93,-0.19,-74.78,24.11,2.12
Manbij,75,SY,1588959392,59,36.53,37.95,18.0,3.77
Camargo,42,MX,1588959392,25,27.67,-105.17,27.54,6.08
Kaoma,0,ZM,1588959393,58,-14.78,24.8,18.19,2.17
Sehithwa,0,BW,1588959393,29,-20.47,22.72,19.76,3.61
Ulladulla,90,AU,1588959393,87,-35.35,150.47,11.67,1.5
Morondava,7,MG,1588959393,74,-20.28,44.28,24.64,5.48
Rio Grande,20,BR,1588959117,43,-32.03,-52.1,21.0,2.1
Arrondissement de Bar-le-Duc,96,FR,1588959394,41,48.75,5.17,24.0,2.1
Vao,16,NC,1588959394,79,-22.67,167.48,22.69,10.79
Northport,75,US,1588959394,82,33.23,-87.58,16.67,8.7
Nyurba,76,RU,1588959395,90,63.28,118.33,-5.01,3.13
San Jerónimo,32,PE,1588959395,51,-11.95,-75.28,16.35,1.21
Raudeberg,72,NO,1588959395,83,61.99,5.14,7.22,3.43
Beech Grove,40,US,1588959230,57,39.72,-86.09,12.22,5.7
Lyuban',64,BY,1588959396,70,52.8,28.0,7.7,2.38
Touros,40,BR,1588959396,70,-5.2,-35.46,30.0,3.6
Kastamonu Province,99,TR,1588959396,84,41.5,33.67,4.81,1.22
Beloha,23,MG,1588959397,79,-25.17,45.05,19.07,5.02
Husavik,75,IS,1588959397,55,66.04,-17.34,3.0,6.2
Charlestown,0,AU,1588959397,70,-32.95,151.67,15.56,3.23
Alexandria,40,EG,1588959346,77,31.22,29.96,20.0,8.2
Lata,63,PT,1588959398,75,40.16,-8.33,18.33,1.34
Teapa,75,MX,1588959398,62,17.55,-92.95,29.0,3.6
Jasper,20,US,1588959399,58,37.2,-94.35,15.56,9.8
Nioro,73,GM,1588959399,12,13.35,-15.75,40.43,5.27
Snyder,1,US,1588959399,31,32.72,-100.92,18.0,13.4
Cabrera,40,DO,1588959399,70,19.64,-69.9,32.0,5.1
Bobon,75,PH,1588959400,87,12.52,124.56,25.09,1.95
Hirara,47,JP,1588959400,85,24.8,125.28,24.96,5.67
Moose Factory,90,CA,1588959400,68,51.26,-80.61,-2.0,5.7
Sena Madureira,11,BR,1588959400,46,-9.07,-68.66,28.5,1.86
Grindavik,0,IS,1588959401,42,63.84,-22.43,7.0,8.7
Wawa,62,NG,1588959401,35,9.9,4.42,33.79,1.86
Rehoboth,0,NA,1588959401,24,-23.32,17.08,19.95,3.58
Anáhuac,75,MX,1588959402,54,27.23,-100.15,29.0,3.1
Pacific Grove,1,US,1588959109,63,36.62,-121.92,26.11,1.5
Sosnogorsk,100,RU,1588959402,89,63.6,53.88,6.35,2.16
Burevestnik,40,RU,1588959402,100,56.14,43.79,17.22,2.0
Port Macquarie,75,AU,1588959403,93,-31.43,152.92,12.78,3.19
Salinas,1,US,1588959126,38,36.68,-121.66,26.11,3.6
Havre-St-Pierre,90,CA,1588959404,52,50.23,-63.6,8.0,8.7
Irecê,99,BR,1588959404,52,-11.3,-41.86,28.81,3.92
Bende,76,NG,1588959404,80,5.56,7.64,26.73,1.15
Yulara,33,AU,1588959405,21,-25.24,130.99,17.0,4.6
Samarai,65,PG,1588959405,82,-10.62,150.67,26.31,7.1
North Bend,1,US,1588959405,59,43.41,-124.22,22.78,2.15
Passo Fundo,0,BR,1588959405,48,-28.26,-52.41,18.44,3.22
Malakal,46,SS,1588959406,42,9.53,31.66,33.03,2.93
Dauphin,90,CA,1588959406,36,51.15,-100.05,7.0,3.6
Westport,100,US,1588959398,72,41.14,-73.36,10.0,1.88
Marystown,76,CA,1588959407,80,47.17,-55.15,3.49,11.68
Hervey Bay,7,AU,1588959407,82,-25.3,152.85,18.33,1.79
Tezu,39,IN,1588959407,53,27.92,96.17,21.19,1.76
Porto Walter,41,BR,1588959196,47,-8.27,-72.74,27.64,2.0
Balkhash,96,KZ,1588959408,39,46.84,74.98,19.25,10.3
Abnūb,0,EG,1588959408,17,27.27,31.15,33.0,5.1
Wukari,4,NG,1588959408,59,7.85,9.78,30.53,3.06
Pontes e Lacerda,78,BR,1588959408,50,-15.23,-59.34,24.09,2.2
Codrington,100,AU,1588959409,90,-38.27,141.97,10.61,6.1
Fort Nelson,20,CA,1588959401,62,58.81,-122.7,13.0,1.0
Atagay,92,RU,1588959409,85,55.1,99.39,3.76,2.72
Mount Gambier,75,AU,1588959409,93,-37.83,140.77,11.0,3.6
Aksu,72,CN,1588959410,33,41.12,80.26,19.03,2.55
Ust-Tsilma,80,RU,1588959410,87,65.44,52.15,3.43,1.09
Bodmin,20,GB,1588959197,52,50.47,-4.72,20.56,3.1
Adamantas,0,GR,1588959410,48,36.73,24.43,18.0,5.7
Sikasso,67,ML,1588959411,23,10.92,-7.0,36.9,1.74
San Miguel,98,SV,1588959394,37,13.48,-88.18,36.28,1.19
Tateyama,87,JP,1588959411,72,34.98,139.87,17.78,1.34
Karpathos,20,GR,1588959411,68,35.51,27.21,19.0,10.3
Gimli,0,CA,1588959243,46,50.63,-96.99,5.0,2.68
Smirnykh,52,RU,1588959412,83,49.75,142.83,6.3,2.62
Kinablangan,27,PH,1588959412,81,7.69,126.55,26.3,2.83
Jardim,0,BR,1588959412,34,-21.48,-56.14,25.24,2.26
Kysyl-Syr,99,RU,1588959413,95,63.9,122.76,-6.96,4.17
